{
  "stations": [
    {
      "name": "SBS 러브FM",
      "country": "South Korea",
      "continent": "Asia",
      "lat": 37.5113,
      "lng": 127.0580,
      "stream": "https://cdnradio.sbs.co.kr/live/smil:lovefm.smil/playlist.m3u8",
      "genre": "Pop"
    },
    {
      "name": "KBS Cool FM",
      "country": "South Korea",
      "continent": "Asia",
      "lat": 37.5665,
      "lng": 126.9780,
      "stream": "https://kbsradio.gscdn.com/kbs2fm/_definst_/kbs2fm.stream/playlist.m3u8",
      "genre": "Pop"
    },
    {
      "name": "TBS 교통방송",
      "country": "South Korea",
      "continent": "Asia",
      "lat": 37.5810,
      "lng": 126.8970,
      "stream": "https://tbs.hscdn.com/tbsradio/fm/playlist.m3u8",
      "genre": "Public Radio"
    },
    {
      "name": "NHK World",
      "country": "Japan",
      "continent": "Asia",
      "lat": 35.6762,
      "lng": 139.6503,
      "stream": "https://nhkwlive-ojp.akamaized.net/hls/live/2003459/nhkwlive-ojp-en/index.m3u8",
      "genre": "Public Radio"
    },
    {
      "name": "AIR FM Rainbow",
      "country": "India",
      "continent": "Asia",
      "lat": 28.6139,
      "lng": 77.2090,
      "stream": "https://airhlspush.pc.cdn.bitgravity.com/httppush/hlspbaudio002/hlspbaudio002_Auto.m3u8",
      "genre": "Public Radio"
    },
    {
      "name": "RTHK Radio 3",
      "country": "Hong Kong",
      "continent": "Asia",
      "lat": 22.3193,
      "lng": 114.1694,
      "stream": "https://rthkaudio3-lh.akamaihd.net/i/radio3_1@355866/master.m3u8",
      "genre": "News/Talk"
    },
    {
      "name": "Class 95",
      "country": "Singapore",
      "continent": "Asia",
      "lat": 1.3521,
      "lng": 103.8198,
      "stream": "https://22393.live.streamtheworld.com/CLASS95_PREM.aac",
      "genre": "Pop"
    },
    {
      "name": "BBC Radio 1",
      "country": "United Kingdom",
      "continent": "Europe",
      "lat": 51.5074,
      "lng": -0.1278,
      "stream": "https://stream.live.vc.bbcmedia.co.uk/bbc_radio_one",
      "genre": "Pop"
    },
    {
      "name": "BBC Radio 4",
      "country": "United Kingdom",
      "continent": "Europe",
      "lat": 51.5185,
      "lng": -0.1400,
      "stream": "https://stream.live.vc.bbcmedia.co.uk/bbc_radio_fourfm",
      "genre": "Talk"
    },
    {
      "name": "France Inter",
      "country": "France",
      "continent": "Europe",
      "lat": 48.8566,
      "lng": 2.3522,
      "stream": "https://icecast.radiofrance.fr/franceinter-midfi.mp3",
      "genre": "Public Radio"
    },
    {
      "name": "Radio France Culture",
      "country": "France",
      "continent": "Europe",
      "lat": 48.8453,
      "lng": 2.3738,
      "stream": "https://icecast.radiofrance.fr/franceculture-midfi.mp3",
      "genre": "Cultural"
    },
    {
      "name": "Deutschlandfunk",
      "country": "Germany",
      "continent": "Europe",
      "lat": 52.5200,
      "lng": 13.4050,
      "stream": "https://st01.sslstream.dlf.de/dlf/01/128/mp3/stream.mp3",
      "genre": "Public Radio"
    },
    {
      "name": "SWR3",
      "country": "Germany",
      "continent": "Europe",
      "lat": 48.9984,
      "lng": 8.4742,
      "stream": "https://liveradio.swr.de/sw282p3/swr3/play.mp3",
      "genre": "Pop"
    },
    {
      "name": "Radio Cadena SER",
      "country": "Spain",
      "continent": "Europe",
      "lat": 40.4168,
      "lng": -3.7038,
      "stream": "https://playerservices.streamtheworld.com/api/livestream-redirect/CADENASER.mp3",
      "genre": "News/Talk"
    },
    {
      "name": "NPR Program Stream",
      "country": "United States",
      "continent": "North America",
      "lat": 38.8977,
      "lng": -77.0365,
      "stream": "https://npr-ice.streamguys1.com/live.mp3",
      "genre": "Public Radio"
    },
    {
      "name": "KCRW",
      "country": "United States",
      "continent": "North America",
      "lat": 34.0522,
      "lng": -118.2437,
      "stream": "https://kcrw.streamguys1.com/kcrw_192k_mp3_on_air",
      "genre": "Eclectic"
    },
    {
      "name": "WNYC-FM",
      "country": "United States",
      "continent": "North America",
      "lat": 40.7128,
      "lng": -74.0060,
      "stream": "https://fm939.wnyc.org/wnycfm-web",
      "genre": "Public Radio"
    },
    {
      "name": "KEXP",
      "country": "United States",
      "continent": "North America",
      "lat": 47.6062,
      "lng": -122.3321,
      "stream": "https://kexp.streamguys1.com/kexp160.aac",
      "genre": "Alternative"
    },
    {
      "name": "CBC Radio One Toronto",
      "country": "Canada",
      "continent": "North America",
      "lat": 43.6532,
      "lng": -79.3832,
      "stream": "https://cbcliveradio-lh.akamaihd.net/i/CBCR1_TOR@118420/master.m3u8",
      "genre": "Public Radio"
    },
    {
      "name": "CBC Music",
      "country": "Canada",
      "continent": "North America",
      "lat": 45.5017,
      "lng": -73.5673,
      "stream": "https://cbcliveradio-lh.akamaihd.net/i/CBCR2_TOR@382790/master.m3u8",
      "genre": "Music"
    },
    {
      "name": "W Radio",
      "country": "Mexico",
      "continent": "North America",
      "lat": 19.4220,
      "lng": -99.1738,
      "stream": "https://playerservices.streamtheworld.com/api/livestream-redirect/W_RADIO_SC",
      "genre": "News/Talk"
    },
    {
      "name": "CBN Rádio",
      "country": "Brazil",
      "continent": "South America",
      "lat": -22.9068,
      "lng": -43.1729,
      "stream": "https://medias.sgr.globo.com/hls/aCBNRJ/aCBNRJ.m3u8",
      "genre": "News"
    },
    {
      "name": "Jovem Pan FM",
      "country": "Brazil",
      "continent": "South America",
      "lat": -23.5505,
      "lng": -46.6333,
      "stream": "https://playerservices.streamtheworld.com/api/livestream-redirect/JP_SP_FM.mp3",
      "genre": "Pop"
    },
    {
      "name": "Radio Nacional Argentina",
      "country": "Argentina",
      "continent": "South America",
      "lat": -34.6037,
      "lng": -58.3816,
      "stream": "https://sa.mp3.icecast.magma.edge-access.net:7200/sc_rad1",
      "genre": "Public Radio"
    },
    {
      "name": "Cooperativa FM",
      "country": "Chile",
      "continent": "South America",
      "lat": -33.4489,
      "lng": -70.6693,
      "stream": "https://unlimited4-us.dps.live/cooperativafm/mp3/icecast.audio",
      "genre": "News/Talk"
    },
    {
      "name": "Radio Caracol",
      "country": "Colombia",
      "continent": "South America",
      "lat": 4.7110,
      "lng": -74.0721,
      "stream": "https://playerservices.streamtheworld.com/api/livestream-redirect/CARACOL_RADIO.mp3",
      "genre": "News/Talk"
    },
    {
      "name": "SABC Radio 2000",
      "country": "South Africa",
      "continent": "Africa",
      "lat": -26.2041,
      "lng": 28.0473,
      "stream": "https://playerservices.streamtheworld.com/api/livestream-redirect/RADIO2000.mp3",
      "genre": "Public Radio"
    },
    {
      "name": "5FM",
      "country": "South Africa",
      "continent": "Africa",
      "lat": -26.1870,
      "lng": 28.0300,
      "stream": "https://playerservices.streamtheworld.com/api/livestream-redirect/5FM.mp3",
      "genre": "Pop"
    },
    {
      "name": "Capital FM Kenya",
      "country": "Kenya",
      "continent": "Africa",
      "lat": -1.2921,
      "lng": 36.8219,
      "stream": "https://icecast2.getstreamhosting.com:8050/stream.mp3",
      "genre": "Pop"
    },
    {
      "name": "RFI Afrique",
      "country": "France/Africa",
      "continent": "Africa",
      "lat": 14.7167,
      "lng": -17.4677,
      "stream": "https://rfiafrique64k.ice.infomaniak.ch/rfiafrique-64.mp3",
      "genre": "News/Talk"
    },
    {
      "name": "RTI Radio Côte d'Ivoire",
      "country": "Ivory Coast",
      "continent": "Africa",
      "lat": 5.3600,
      "lng": -4.0083,
      "stream": "https://www.rti.ci/radio/radioci.m3u8",
      "genre": "Public Radio"
    },
    {
      "name": "ABC Radio National",
      "country": "Australia",
      "continent": "Oceania",
      "lat": -35.2809,
      "lng": 149.1300,
      "stream": "https://live-radio01.mediahubaustralia.com/2RNW/mp3/",
      "genre": "Public Radio"
    },
    {
      "name": "Triple J",
      "country": "Australia",
      "continent": "Oceania",
      "lat": -33.8688,
      "lng": 151.2093,
      "stream": "https://live-radio01.mediahubaustralia.com/2TJW/mp3/",
      "genre": "Alternative"
    },
    {
      "name": "SBS Radio",
      "country": "Australia",
      "continent": "Oceania",
      "lat": -33.8678,
      "lng": 151.2100,
      "stream": "https://sbs-ice.streamguys1.com/sbs-arabic24-sbs",
      "genre": "Multicultural"
    },
    {
      "name": "Radio New Zealand National",
      "country": "New Zealand",
      "continent": "Oceania",
      "lat": -41.2865,
      "lng": 174.7762,
      "stream": "https://stream-ice.radionz.co.nz/national.mp3",
      "genre": "Public Radio"
    },
    {
      "name": "The Edge",
      "country": "New Zealand",
      "continent": "Oceania",
      "lat": -36.8485,
      "lng": 174.7633,
      "stream": "https://livestream.mediaworks.nz/radio_origin/edge_128kbps/playlist.m3u8",
      "genre": "Pop"
    }
  ]
} 
