{
  "stations": [
    {
      "name": "BBC Radio 1",
      "country": "United Kingdom",
      "continent": "Europe",
      "lat": 51.5074,
      "lng": -0.1278,
      "stream": "https://stream.live.vc.bbcmedia.co.uk/bbc_radio_one",
      "genre": "Pop"
    },
    {
      "name": "BBC Radio 2",
      "country": "United Kingdom",
      "continent": "Europe",
      "lat": 51.5074,
      "lng": -0.1278,
      "stream": "https://stream.live.vc.bbcmedia.co.uk/bbc_radio_two",
      "genre": "Adult Contemporary"
    },
    {
      "name": "BBC Radio 4",
      "country": "United Kingdom",
      "continent": "Europe",
      "lat": 51.5185,
      "lng": -0.1400,
      "stream": "https://stream.live.vc.bbcmedia.co.uk/bbc_radio_fourfm",
      "genre": "Talk"
    },
    {
      "name": "BBC Radio 6 Music",
      "country": "United Kingdom",
      "continent": "Europe",
      "lat": 51.5074,
      "lng": -0.1278,
      "stream": "https://stream.live.vc.bbcmedia.co.uk/bbc_6music",
      "genre": "Alternative"
    },
    {
      "name": "NPR Live",
      "country": "United States",
      "continent": "North America",
      "lat": 38.8977,
      "lng": -77.0365,
      "stream": "https://npr-ice.streamguys1.com/live.mp3",
      "genre": "Public Radio"
    },
    {
      "name": "KCRW",
      "country": "United States",
      "continent": "North America",
      "lat": 34.0522,
      "lng": -118.2437,
      "stream": "https://kcrw.streamguys1.com/kcrw_192k_mp3_on_air",
      "genre": "Eclectic"
    },
    {
      "name": "WNYC-FM",
      "country": "United States",
      "continent": "North America",
      "lat": 40.7128,
      "lng": -74.0060,
      "stream": "https://fm939.wnyc.org/wnycfm-web",
      "genre": "Public Radio"
    },
    {
      "name": "KEXP",
      "country": "United States",
      "continent": "North America",
      "lat": 47.6062,
      "lng": -122.3321,
      "stream": "https://kexp.streamguys1.com/kexp160.aac",
      "genre": "Alternative"
    },
    {
      "name": "Triple J",
      "country": "Australia",
      "continent": "Oceania",
      "lat": -33.8688,
      "lng": 151.2093,
      "stream": "https://live-radio01.mediahubaustralia.com/2TJW/mp3/",
      "genre": "Alternative"
    },
    {
      "name": "ABC Radio National",
      "country": "Australia",
      "continent": "Oceania",
      "lat": -35.2809,
      "lng": 149.1300,
      "stream": "https://live-radio01.mediahubaustralia.com/2RNW/mp3/",
      "genre": "Public Radio"
    },
    {
      "name": "Radio New Zealand National",
      "country": "New Zealand",
      "continent": "Oceania",
      "lat": -41.2865,
      "lng": 174.7762,
      "stream": "https://stream-ice.radionz.co.nz/national.mp3",
      "genre": "Public Radio"
    },
    {
      "name": "France Inter",
      "country": "France",
      "continent": "Europe",
      "lat": 48.8566,
      "lng": 2.3522,
      "stream": "https://icecast.radiofrance.fr/franceinter-midfi.mp3",
      "genre": "Public Radio"
    },
    {
      "name": "France Culture",
      "country": "France",
      "continent": "Europe",
      "lat": 48.8453,
      "lng": 2.3738,
      "stream": "https://icecast.radiofrance.fr/franceculture-midfi.mp3",
      "genre": "Cultural"
    },
    {
      "name": "FIP",
      "country": "France",
      "continent": "Europe",
      "lat": 48.8566,
      "lng": 2.3522,
      "stream": "https://icecast.radiofrance.fr/fip-midfi.mp3",
      "genre": "Eclectic"
    },
    {
      "name": "Deutschlandfunk",
      "country": "Germany",
      "continent": "Europe",
      "lat": 52.5200,
      "lng": 13.4050,
      "stream": "https://st01.sslstream.dlf.de/dlf/01/128/mp3/stream.mp3",
      "genre": "Public Radio"
    },
    {
      "name": "SWR3",
      "country": "Germany",
      "continent": "Europe",
      "lat": 48.9984,
      "lng": 8.4742,
      "stream": "https://liveradio.swr.de/sw282p3/swr3/play.mp3",
      "genre": "Pop"
    },
    {
      "name": "CBC Radio One Toronto",
      "country": "Canada",
      "continent": "North America",
      "lat": 43.6532,
      "lng": -79.3832,
      "stream": "https://cbcliveradio.akamaized.net/hls/live/2041012/ER_TOR/master.m3u8",
      "genre": "Public Radio"
    },
    {
      "name": "CBC Music",
      "country": "Canada",
      "continent": "North America",
      "lat": 45.5017,
      "lng": -73.5673,
      "stream": "https://cbcliveradio.akamaized.net/hls/live/2041052/ER_TOR2/master.m3u8",
      "genre": "Music"
    },
    {
      "name": "NHK World",
      "country": "Japan",
      "continent": "Asia",
      "lat": 35.6762,
      "lng": 139.6503,
      "stream": "https://nhkworld.webcdn.stream.ne.jp/www11/radiojapan/all/263943/live_s.m3u8",
      "genre": "Public Radio"
    },
    {
      "name": "YLE Radio 1",
      "country": "Finland",
      "continent": "Europe",
      "lat": 60.1699,
      "lng": 24.9384,
      "stream": "https://yleradiolive.akamaized.net/hls/live/2027672/in-YleRadio1/master.m3u8",
      "genre": "Public Radio"
    },
    {
      "name": "Sveriges Radio P1",
      "country": "Sweden",
      "continent": "Europe",
      "lat": 59.3293,
      "lng": 18.0686,
      "stream": "https://sverigesradio.se/topsy/direkt/132-hi-mp3.m3u",
      "genre": "Public Radio"
    },
    {
      "name": "Sveriges Radio P3",
      "country": "Sweden",
      "continent": "Europe",
      "lat": 59.3293,
      "lng": 18.0686,
      "stream": "https://sverigesradio.se/topsy/direkt/164-hi-mp3.m3u",
      "genre": "Pop"
    },
    {
      "name": "RAI Radio 1",
      "country": "Italy",
      "continent": "Europe",
      "lat": 41.9028,
      "lng": 12.4964,
      "stream": "https://icestreaming.rai.it/1.mp3",
      "genre": "Public Radio"
    },
    {
      "name": "RAI Radio 3",
      "country": "Italy",
      "continent": "Europe",
      "lat": 41.9028,
      "lng": 12.4964,
      "stream": "https://icestreaming.rai.it/3.mp3",
      "genre": "Classical"
    },
    {
      "name": "Rai Radio Techete",
      "country": "Italy",
      "continent": "Europe",
      "lat": 41.9028,
      "lng": 12.4964,
      "stream": "https://icestreaming.rai.it/12.mp3",
      "genre": "Vintage"
    },
    {
      "name": "RNE Radio Nacional",
      "country": "Spain",
      "continent": "Europe",
      "lat": 40.4168,
      "lng": -3.7038,
      "stream": "https://rtvelivestream.akamaized.net/rtvesec/rne/rne_r1_main.m3u8",
      "genre": "Public Radio"
    },
    {
      "name": "RNE Radio 3",
      "country": "Spain",
      "continent": "Europe",
      "lat": 40.4168,
      "lng": -3.7038,
      "stream": "https://rtvelivestream.akamaized.net/rtvesec/rne/rne_r3_main.m3u8",
      "genre": "Alternative"
    },
    {
      "name": "ABC Classic",
      "country": "Australia",
      "continent": "Oceania",
      "lat": -33.8688,
      "lng": 151.2093,
      "stream": "https://live-radio01.mediahubaustralia.com/2FMW/mp3/",
      "genre": "Classical"
    },
    {
      "name": "Radio Swiss Classic",
      "country": "Switzerland",
      "continent": "Europe",
      "lat": 46.9480,
      "lng": 7.4474,
      "stream": "https://stream.srg-ssr.ch/m/rsc_de/mp3_128",
      "genre": "Classical"
    },
    {
      "name": "Radio Swiss Jazz",
      "country": "Switzerland",
      "continent": "Europe",
      "lat": 46.9480,
      "lng": 7.4474,
      "stream": "https://stream.srg-ssr.ch/m/rsj/mp3_128",
      "genre": "Jazz"
    }
  ]
} 
